[
  { "keyword": "kabul", "name": "Kabul", "continent": "Asia", "desc": "Capital of Afghanistan.", "img": "assets/Kabul.jpeg", "lat": 34.5553, "lng": 69.1723 },
  { "keyword": "tirana", "name": "Tirana", "continent": "Europe", "desc": "Capital of Albania.", "img": "assets/Tirana.jpeg", "lat": 41.3275, "lng": 19.8187 },
  { "keyword": "algiers", "name": "Algiers", "continent": "Africa", "desc": "Capital of Algeria.", "img": "assets/Algiers.jpeg", "lat": 36.7538, "lng": 3.0588 },
  { "keyword": "luanda", "name": "Luanda", "continent": "Africa", "desc": "Capital of Angola.", "img": "assets/Luanda.jpeg", "lat": -8.8390, "lng": 13.2894 },
  { "keyword": "buenos aires", "name": "Buenos Aires", "continent": "Americas", "desc": "Capital of Argentina.", "img": "assets/Buenos_Aires.jpeg", "lat": -34.6037, "lng": -58.3816 },
  { "keyword": "yerevan", "name": "Yerevan", "continent": "Asia", "desc": "Capital of Armenia.", "img": "assets/Yerevan.jpeg", "lat": 40.1792, "lng": 44.4991 },
  { "keyword": "canberra", "name": "Canberra", "continent": "Oceania", "desc": "Capital of Australia.", "img": "assets/Canberra.jpeg", "lat": -35.2809, "lng": 149.1300 },
  { "keyword": "vienna", "name": "Vienna", "continent": "Europe", "desc": "Capital of Austria.", "img": "assets/Vienna.jpeg", "lat": 48.2082, "lng": 16.3738 },
  { "keyword": "baku", "name": "Baku", "continent": "Asia", "desc": "Capital of Azerbaijan.", "img": "assets/Baku.jpeg", "lat": 40.4093, "lng": 49.8671 },
  { "keyword": "brussels", "name": "Brussels", "continent": "Europe", "desc": "Capital of Belgium.", "img": "assets/Brussels.jpeg", "lat": 50.8503, "lng": 4.3517 },
  { "keyword": "sarajevo", "name": "Sarajevo", "continent": "Europe", "desc": "Capital of Bosnia and Herzegovina.", "img": "assets/Sarajevo.jpeg", "lat": 43.8563, "lng": 18.4131 },
  { "keyword": "brasilia", "name": "Brasília", "continent": "Americas", "desc": "Capital of Brazil.", "img": "assets/Brasília.jpeg", "lat": -15.7975, "lng": -47.8919 },
  { "keyword": "sofia", "name": "Sofia", "continent": "Europe", "desc": "Capital of Bulgaria.", "img": "assets/Sofia.jpeg", "lat": 42.6977, "lng": 23.3219 },
  { "keyword": "ottawa", "name": "Ottawa", "continent": "Americas", "desc": "Capital of Canada.", "img": "assets/Ottawa.jpeg", "lat": 45.4215, "lng": -75.6972 },
  { "keyword": "santiago", "name": "Santiago", "continent": "Americas", "desc": "Capital of Chile.", "img": "assets/Santiago.jpeg", "lat": -33.4489, "lng": -70.6693 },
  { "keyword": "beijing", "name": "Beijing", "continent": "Asia", "desc": "Capital of China.", "img": "assets/Beijing.jpeg", "lat": 39.9042, "lng": 116.4074 },
  { "keyword": "bogota", "name": "Bogotá", "continent": "Americas", "desc": "Capital of Colombia.", "img": "assets/Bogotá.jpeg", "lat": 4.7110, "lng": -74.0721 },
  { "keyword": "zagreb", "name": "Zagreb", "continent": "Europe", "desc": "Capital of Croatia.", "img": "assets/Zagreb.jpeg", "lat": 45.8150, "lng": 15.9819 },
  { "keyword": "havana", "name": "Havana", "continent": "Americas", "desc": "Capital of Cuba.", "img": "assets/Havana.jpeg", "lat": 23.1136, "lng": -82.3666 },
  { "keyword": "prague", "name": "Prague", "continent": "Europe", "desc": "Capital of Czechia.", "img": "assets/Prague.jpeg", "lat": 50.0755, "lng": 14.4378 },
  { "keyword": "copenhagen", "name": "Copenhagen", "continent": "Europe", "desc": "Capital of Denmark.", "img": "assets/Copenhagen.jpeg", "lat": 55.6761, "lng": 12.5683 },
  { "keyword": "cairo", "name": "Cairo", "continent": "Africa", "desc": "Capital of Egypt.", "img": "assets/Cairo.jpeg", "lat": 30.0444, "lng": 31.2357 },
  { "keyword": "tallinn", "name": "Tallinn", "continent": "Europe", "desc": "Capital of Estonia.", "img": "assets/Tallinn.jpeg", "lat": 59.4370, "lng": 24.7536 },
  { "keyword": "addis ababa", "name": "Addis Ababa", "continent": "Africa", "desc": "Capital of Ethiopia.", "img": "assets/Addis_Ababa.jpeg", "lat": 9.0306, "lng": 38.7469 },
  { "keyword": "helsinki", "name": "Helsinki", "continent": "Europe", "desc": "Capital of Finland.", "img": "assets/Helsinki.jpeg", "lat": 60.1695, "lng": 24.9354 },
  { "keyword": "paris", "name": "Paris", "continent": "Europe", "desc": "Capital of France.", "img": "assets/Paris.jpeg", "lat": 48.8566, "lng": 2.3522 },
  { "keyword": "tbilisi", "name": "Tbilisi", "continent": "Asia", "desc": "Capital of Georgia.", "img": "assets/Tbilisi.jpeg", "lat": 41.7151, "lng": 44.8271 },
  { "keyword": "berlin", "name": "Berlin", "continent": "Europe", "desc": "Capital of Germany.", "img": "assets/Berlin.jpeg", "lat": 52.5200, "lng": 13.4050 },
  { "keyword": "athens", "name": "Athens", "continent": "Europe", "desc": "Capital of Greece.", "img": "assets/Athens.jpeg", "lat": 37.9838, "lng": 23.7275 },
  { "keyword": "budapest", "name": "Budapest", "continent": "Europe", "desc": "Capital of Hungary.", "img": "assets/Budapest.jpeg", "lat": 47.4979, "lng": 19.0402 },
  { "keyword": "reykjavik", "name": "Reykjavík", "continent": "Europe", "desc": "Capital of Iceland.", "img": "assets/Reykjavík.jpeg", "lat": 64.1265, "lng": -21.8174 },
  { "keyword": "new delhi", "name": "New Delhi", "continent": "Asia", "desc": "Capital of India.", "img": "assets/New_Delhi.jpeg", "lat": 28.6139, "lng": 77.2090 },
  { "keyword": "tehran", "name": "Tehran", "continent": "Asia", "desc": "Capital of Iran.", "img": "assets/Tehran.jpeg", "lat": 35.6892, "lng": 51.3890 },
  { "keyword": "baghdad", "name": "Baghdad", "continent": "Asia", "desc": "Capital of Iraq.", "img": "assets/Baghdad.jpeg", "lat": 33.3152, "lng": 44.3661 },
  { "keyword": "dublin", "name": "Dublin", "continent": "Europe", "desc": "Capital of Ireland.", "img": "assets/Dublin.jpeg", "lat": 53.3498, "lng": -6.2603 },
  { "keyword": "rome", "name": "Rome", "continent": "Europe", "desc": "Capital of Italy.", "img": "assets/Rome.jpeg", "lat": 41.9028, "lng": 12.4964 },
  { "keyword": "kingston", "name": "Kingston", "continent": "Americas", "desc": "Capital of Jamaica.", "img": "assets/Kingston.jpeg", "lat": 17.9714, "lng": -76.7936 },
  { "keyword": "tokyo", "name": "Tokyo", "continent": "Asia", "desc": "Capital of Japan.", "img": "assets/Tokyo.jpeg", "lat": 35.6762, "lng": 139.6503 },
  { "keyword": "amman", "name": "Amman", "continent": "Asia", "desc": "Capital of Jordan.", "img": "assets/Amman.jpeg", "lat": 31.9454, "lng": 35.9284 },
  { "keyword": "astana", "name": "Astana", "continent": "Asia", "desc": "Capital of Kazakhstan.", "img": "assets/Astana.jpeg", "lat": 51.1605, "lng": 71.4704 },
  { "keyword": "nairobi", "name": "Nairobi", "continent": "Africa", "desc": "Capital of Kenya.", "img": "assets/Nairobi.jpeg", "lat": -1.2921, "lng": 36.8219 },
  { "keyword": "kuwait city", "name": "Kuwait City", "continent": "Asia", "desc": "Capital of Kuwait.", "img": "assets/Kuwait_City.jpeg", "lat": 29.3759, "lng": 47.9774 },
  { "keyword": "bishkek", "name": "Bishkek", "continent": "Asia", "desc": "Capital of Kyrgyzstan.", "img": "assets/Bishkek.jpeg", "lat": 42.8746, "lng": 74.5698 },
  { "keyword": "vientiane", "name": "Vientiane", "continent": "Asia", "desc": "Capital of Laos.", "img": "assets/Vientiane.jpeg", "lat": 17.9757, "lng": 102.6331 },
  { "keyword": "riga", "name": "Riga", "continent": "Europe", "desc": "Capital of Latvia.", "img": "assets/Riga.jpeg", "lat": 56.9496, "lng": 24.1052 },
  { "keyword": "beirut", "name": "Beirut", "continent": "Asia", "desc": "Capital of Lebanon.", "img": "assets/Beirut.jpeg", "lat": 33.8938, "lng": 35.5018 },
  { "keyword": "tripoli", "name": "Tripoli", "continent": "Africa", "desc": "Capital of Libya.", "img": "assets/Tripoli.jpeg", "lat": 32.8872, "lng": 13.1913 },
  { "keyword": "vaduz", "name": "Vaduz", "continent": "Europe", "desc": "Capital of Liechtenstein.", "img": "assets/Vaduz.jpeg", "lat": 47.1410, "lng": 9.5209 },
  { "keyword": "vilnius", "name": "Vilnius", "continent": "Europe", "desc": "Capital of Lithuania.", "img": "assets/Vilnius.jpeg", "lat": 54.6872, "lng": 25.2797 },
  { "keyword": "luxembourg city", "name": "Luxembourg City", "continent": "Europe", "desc": "Capital of Luxembourg.", "img": "assets/Luxembourg.jpeg", "lat": 49.6116, "lng": 6.1319 },
  { "keyword": "skopje", "name": "Skopje", "continent": "Europe", "desc": "Capital of North Macedonia.", "img": "assets/Skopje.jpeg", "lat": 41.9973, "lng": 21.4280 },
  { "keyword": "antananarivo", "name": "Antananarivo", "continent": "Africa", "desc": "Capital of Madagascar.", "img": "assets/Antananarivo.jpeg", "lat": -18.8792, "lng": 47.5079 },
  { "keyword": "kuala lumpur", "name": "Kuala Lumpur", "continent": "Asia", "desc": "Capital of Malaysia.", "img": "assets/Kuala_Lumpur.jpeg", "lat": 3.1390, "lng": 101.6869 },
  { "keyword": "male", "name": "Malé", "continent": "Asia", "desc": "Capital of Maldives.", "img": "assets/Malé.jpeg", "lat": 4.1755, "lng": 73.5093 },
  { "keyword": "valletta", "name": "Valletta", "continent": "Europe", "desc": "Capital of Malta.", "img": "assets/Valletta.jpeg", "lat": 35.8989, "lng": 14.5146 },
  { "keyword": "mexico city", "name": "Mexico City", "continent": "Americas", "desc": "Capital of Mexico.", "img": "assets/Mexico_City.jpeg", "lat": 19.4326, "lng": -99.1332 },
  { "keyword": "chisinau", "name": "Chișinău", "continent": "Europe", "desc": "Capital of Moldova.", "img": "assets/Chișinău.jpeg", "lat": 47.0105, "lng": 28.8638 },
  { "keyword": "monaco", "name": "Monaco", "continent": "Europe", "desc": "City-state capital.", "img": "assets/Monaco.jpeg", "lat": 43.7384, "lng": 7.4246 },
  { "keyword": "ulaanbaatar", "name": "Ulaanbaatar", "continent": "Asia", "desc": "Capital of Mongolia.", "img": "assets/Ulaanbaatar.jpeg", "lat": 47.8864, "lng": 106.9057 },
  { "keyword": "podgorica", "name": "Podgorica", "continent": "Europe", "desc": "Capital of Montenegro.", "img": "assets/Podgorica.jpeg", "lat": 42.4304, "lng": 19.2594 },
  { "keyword": "rabat", "name": "Rabat", "continent": "Africa", "desc": "Capital of Morocco.", "img": "assets/Rabat.jpeg", "lat": 34.0209, "lng": -6.8416 },
  { "keyword": "naypyidaw", "name": "Naypyidaw", "continent": "Asia", "desc": "Capital of Myanmar.", "img": "assets/Naypyidaw.jpeg", "lat": 19.7633, "lng": 96.0785 },
  { "keyword": "kathmandu", "name": "Kathmandu", "continent": "Asia", "desc": "Capital of Nepal.", "img": "assets/Kathmandu.jpeg", "lat": 27.7172, "lng": 85.3240 },
  { "keyword": "amsterdam", "name": "Amsterdam", "continent": "Europe", "desc": "Capital of Netherlands.", "img": "assets/Amsterdam.jpeg", "lat": 52.3676, "lng": 4.9041 },
  { "keyword": "wellington", "name": "Wellington", "continent": "Oceania", "desc": "Capital of New Zealand.", "img": "assets/Wellington.jpeg", "lat": -41.2865, "lng": 174.7762 },
  { "keyword": "abuja", "name": "Abuja", "continent": "Africa", "desc": "Capital of Nigeria.", "img": "assets/Abuja.jpeg", "lat": 9.0765, "lng": 7.3986 },
  { "keyword": "pyongyang", "name": "Pyongyang", "continent": "Asia", "desc": "Capital of North Korea.", "img": "assets/Pyongyang.jpeg", "lat": 39.0392, "lng": 125.7625 },
  { "keyword": "oslo", "name": "Oslo", "continent": "Europe", "desc": "Capital of Norway.", "img": "assets/Oslo.jpeg", "lat": 59.9139, "lng": 10.7522 },
  { "keyword": "muscat", "name": "Muscat", "continent": "Asia", "desc": "Capital of Oman.", "img": "assets/Muscat.jpeg", "lat": 23.5859, "lng": 58.4059 },
  { "keyword": "islamabad", "name": "Islamabad", "continent": "Asia", "desc": "Capital of Pakistan.", "img": "assets/Islamabad.jpeg", "lat": 33.6844, "lng": 73.0479 },
  { "keyword": "panama city", "name": "Panama City", "continent": "Americas", "desc": "Capital of Panama.", "img": "https://images.unsplash.com/photo-1554629947-334ff61d85dc?w=400", "lat": 8.9824, "lng": -79.5199 },
  { "keyword": "lima", "name": "Lima", "continent": "Americas", "desc": "Capital of Peru.", "img": "https://images.unsplash.com/photo-1531968455001-5c5277a9b127?w=400", "lat": -12.0464, "lng": -77.0428 },
  { "keyword": "manila", "name": "Manila", "continent": "Asia", "desc": "Capital of Philippines.", "img": "https://images.unsplash.com/photo-1518509562904-e7ef99cdcc86?w=400", "lat": 14.5995, "lng": 120.9842 },
  { "keyword": "warsaw", "name": "Warsaw", "continent": "Europe", "desc": "Capital of Poland.", "img": "https://images.unsplash.com/photo-1519197924294-4ba991a11128?w=400", "lat": 52.2297, "lng": 21.0122 },
  { "keyword": "lisbon", "name": "Lisbon", "continent": "Europe", "desc": "Capital of Portugal.", "img": "https://images.unsplash.com/photo-1527230009292-62985172ec1b?w=400", "lat": 38.7223, "lng": -9.1393 },
  { "keyword": "doha", "name": "Doha", "continent": "Asia", "desc": "Capital of Qatar.", "img": "https://images.unsplash.com/photo-1525625232717-121ad310255a?w=400", "lat": 25.2854, "lng": 51.5310 },
  { "keyword": "bucharest", "name": "Bucharest", "continent": "Europe", "desc": "Capital of Romania.", "img": "https://images.unsplash.com/photo-1563143527-3101686616e2?w=400", "lat": 44.4268, "lng": 26.1025 },
  { "keyword": "moscow", "name": "Moscow", "continent": "Europe", "desc": "Capital of Russia.", "img": "https://images.unsplash.com/photo-1513326738677-b964603b136d?w=400", "lat": 55.7558, "lng": 37.6173 },
  { "keyword": "riyadh", "name": "Riyadh", "continent": "Asia", "desc": "Capital of Saudi Arabia.", "img": "https://images.unsplash.com/photo-1533602534063-7da9f77f7f9b?w=400", "lat": 24.7136, "lng": 46.6753 },
  { "keyword": "belgrade", "name": "Belgrade", "continent": "Europe", "desc": "Capital of Serbia.", "img": "https://images.unsplash.com/photo-1596481741753-15697d8c83e2?w=400", "lat": 44.7866, "lng": 20.4489 },
  { "keyword": "singapore", "name": "Singapore", "continent": "Asia", "desc": "City-state capital.", "img": "https://images.unsplash.com/photo-1525625232717-121ad310255a?w=400", "lat": 1.3521, "lng": 103.8198 },
  { "keyword": "bratislava", "name": "Bratislava", "continent": "Europe", "desc": "Capital of Slovakia.", "img": "https://images.unsplash.com/photo-1574041124441-285628b08709?w=400", "lat": 48.1486, "lng": 17.1077 },
  { "keyword": "ljubljana", "name": "Ljubljana", "continent": "Europe", "desc": "Capital of Slovenia.", "img": "https://images.unsplash.com/photo-1562916195-22709283724c?w=400", "lat": 46.0569, "lng": 14.5058 },
  { "keyword": "pretoria", "name": "Pretoria", "continent": "Africa", "desc": "Administrative capital of South Africa.", "img": "https://images.unsplash.com/photo-1580619305218-85e4ea7ac17e?w=400", "lat": -25.7479, "lng": 28.2293 },
  { "keyword": "seoul", "name": "Seoul", "continent": "Asia", "desc": "Capital of South Korea.", "img": "https://images.unsplash.com/photo-1538481199705-c710c4e965fc?w=400", "lat": 37.5665, "lng": 126.9780 },
  { "keyword": "madrid", "name": "Madrid", "continent": "Europe", "desc": "Capital of Spain.", "img": "https://images.unsplash.com/photo-1539037116277-4db20889f2d4?w=400", "lat": 40.4168, "lng": -3.7038 },
  { "keyword": "colombo", "name": "Colombo", "continent": "Asia", "desc": "Executive capital of Sri Lanka.", "img": "https://images.unsplash.com/photo-1550951298-5c7b95a66bfc?w=400", "lat": 6.9271, "lng": 79.8612 },
  { "keyword": "stockholm", "name": "Stockholm", "continent": "Europe", "desc": "Capital of Sweden.", "img": "https://images.unsplash.com/photo-1592906200041-555b03e28536?w=400", "lat": 59.3293, "lng": 18.0686 },
  { "keyword": "bern", "name": "Bern", "continent": "Europe", "desc": "Capital of Switzerland.", "img": "https://images.unsplash.com/photo-1516550893923-42d28e5677af?w=400", "lat": 46.9480, "lng": 7.4474 },
  { "keyword": "damascus", "name": "Damascus", "continent": "Asia", "desc": "Capital of Syria.", "img": "https://images.unsplash.com/photo-1588661701389-98007205ca1b?w=400", "lat": 33.5138, "lng": 36.2765 },
  { "keyword": "taipei", "name": "Taipei", "continent": "Asia", "desc": "Capital of Taiwan.", "img": "https://images.unsplash.com/photo-1552912853-3112a926a798?w=400", "lat": 25.0330, "lng": 121.5654 },
  { "keyword": "bangkok", "name": "Bangkok", "continent": "Asia", "desc": "Capital of Thailand.", "img": "https://images.unsplash.com/photo-1528181304800-2f140819ad9c?w=400", "lat": 13.7563, "lng": 100.5018 },
  { "keyword": "tunis", "name": "Tunis", "continent": "Africa", "desc": "Capital of Tunisia.", "img": "https://images.unsplash.com/photo-1510125869408-0cc23a9cc373?w=400", "lat": 36.8065, "lng": 10.1815 },
  { "keyword": "ankara", "name": "Ankara", "continent": "Asia", "desc": "Capital of Turkey.", "img": "https://images.unsplash.com/photo-1524231757912-21f4fe3a7200?w=400", "lat": 39.9334, "lng": 32.8597 },
  { "keyword": "ashgabat", "name": "Ashgabat", "continent": "Asia", "desc": "Capital of Turkmenistan.", "img": "https://images.unsplash.com/photo-1579606091094-17362f628469?w=400", "lat": 37.9601, "lng": 58.3261 },
  { "keyword": "abu dhabi", "name": "Abu Dhabi", "continent": "Asia", "desc": "Capital of the UAE.", "img": "https://images.unsplash.com/photo-1512453979798-5ea266f8880c?w=400", "lat": 24.4539, "lng": 54.3773 },
  { "keyword": "london", "name": "London", "continent": "Europe", "desc": "Capital of the UK.", "img": "https://images.unsplash.com/photo-1529655683826-aba9b3e77383?w=400", "lat": 51.5074, "lng": -0.1278 },
  { "keyword": "washington dc", "name": "Washington D.C.", "continent": "Americas", "desc": "Capital of the USA.", "img": "https://images.unsplash.com/photo-1501466044931-62695aada8e9?w=400", "lat": 38.8951, "lng": -77.0364 },
  { "keyword": "montevideo", "name": "Montevideo", "continent": "Americas", "desc": "Capital of Uruguay.", "img": "https://images.unsplash.com/photo-1589909202802-8f4abbce3117?w=400", "lat": -34.9011, "lng": -56.1645 },
  { "keyword": "tashkent", "name": "Tashkent", "continent": "Asia", "desc": "Capital of Uzbekistan.", "img": "https://images.unsplash.com/photo-1590483736622-39da8af7ff8f?w=400", "lat": 41.2995, "lng": 69.2401 },
  { "keyword": "vatican city", "name": "Vatican City", "continent": "Europe", "desc": "City-state capital.", "img": "https://images.unsplash.com/photo-1552832230-c0197dd311b5?w=400", "lat": 41.9029, "lng": 12.4534 },
  { "keyword": "caracas", "name": "Caracas", "continent": "Americas", "desc": "Capital of Venezuela.", "img": "https://images.unsplash.com/photo-1583997052503-7be755e3474a?w=400", "lat": 10.4806, "lng": -66.9036 },
  { "keyword": "hanoi", "name": "Hanoi", "continent": "Asia", "desc": "Capital of Vietnam.", "img": "https://images.unsplash.com/photo-1524230572899-a752b3835840?w=400", "lat": 21.0285, "lng": 105.8542 },
  { "keyword": "sanaa", "name": "Sanaa", "continent": "Asia", "desc": "Capital of Yemen.", "img": "https://images.unsplash.com/photo-1579606091094-17362f628469?w=400", "lat": 15.3694, "lng": 44.1910 },

  { "keyword": "jakarta", "name": "Jakarta", "continent": "Asia", "desc": "Capital of Indonesia and the Special Capital Region of Jakarta.", "img": "https://images.unsplash.com/photo-1555138122-c322f983bc0d?w=400", "lat": -6.2088, "lng": 106.8456 },
  { "keyword": "banda aceh", "name": "Banda Aceh", "continent": "Asia", "desc": "Capital of Aceh.", "img": "https://images.unsplash.com/photo-1588661701389-98007205ca1b?w=400", "lat": 5.5483, "lng": 95.3238 },
  { "keyword": "medan", "name": "Medan", "continent": "Asia", "desc": "Capital of North Sumatra.", "img": "https://images.unsplash.com/photo-1589182337358-2cb63099350c?w=400", "lat": 3.5952, "lng": 98.6722 },
  { "keyword": "padang", "name": "Padang", "continent": "Asia", "desc": "Capital of West Sumatra.", "img": "https://images.unsplash.com/photo-1544735716-392fe2489ffa?w=400", "lat": -0.9471, "lng": 100.4172 },
  { "keyword": "pekanbaru", "name": "Pekanbaru", "continent": "Asia", "desc": "Capital of Riau.", "img": "https://images.unsplash.com/photo-1590483736622-39da8af7ff8f?w=400", "lat": 0.5071, "lng": 101.4478 },
  { "keyword": "tanjung pinang", "name": "Tanjung Pinang", "continent": "Asia", "desc": "Capital of Riau Islands.", "img": "https://images.unsplash.com/photo-1543336713-39870856089f?w=400", "lat": 0.9167, "lng": 104.4500 },
  { "keyword": "jambi", "name": "Jambi", "continent": "Asia", "desc": "Capital of Jambi.", "img": "https://images.unsplash.com/photo-1560233075-4c07056f7093?w=400", "lat": -1.6101, "lng": 103.6131 },
  { "keyword": "palembang", "name": "Palembang", "continent": "Asia", "desc": "Capital of South Sumatra.", "img": "https://images.unsplash.com/photo-1582260656827-0208df04e2f9?w=400", "lat": -2.9909, "lng": 104.7567 },
  { "keyword": "pangkal pinang", "name": "Pangkal Pinang", "continent": "Asia", "desc": "Capital of Bangka Belitung Islands.", "img": "https://images.unsplash.com/photo-1579606091094-17362f628469?w=400", "lat": -2.1306, "lng": 106.1161 },
  { "keyword": "bengkulu", "name": "Bengkulu", "continent": "Asia", "desc": "Capital of Bengkulu.", "img": "https://images.unsplash.com/photo-1534067783941-51c9c23eccfd?w=400", "lat": -3.7928, "lng": 102.2608 },
  { "keyword": "bandar lampung", "name": "Bandar Lampung", "continent": "Asia", "desc": "Capital of Lampung.", "img": "https://images.unsplash.com/photo-1549488344-1f9b8d2bd1f3?w=400", "lat": -5.3971, "lng": 105.2667 },
  { "keyword": "serang", "name": "Serang", "continent": "Asia", "desc": "Capital of Banten.", "img": "https://images.unsplash.com/photo-15420518418c7-59a970bb7881?w=400", "lat": -6.1104, "lng": 106.1605 },
  { "keyword": "tangerang", "name": "Tangerang", "continent": "Asia", "desc": "A vibrant industrial hub and the 'City of Fortresses,' home to the Al-A'zhom Grand Mosque and the historic Benteng Heritage district.", "img": "assets/tangerang.jpg", "lat": -6.1781, "lng": 106.6300 },
  { "keyword": "bandung", "name": "Bandung", "continent": "Asia", "desc": "Capital of West Java.", "img": "https://images.unsplash.com/photo-1588661701389-98007205ca1b?w=400", "lat": -6.9175, "lng": 107.6191 },
  { "keyword": "semarang", "name": "Semarang", "continent": "Asia", "desc": "Capital of Central Java.", "img": "https://images.unsplash.com/photo-1578310344723-5e921d15c707?w=400", "lat": -6.9667, "lng": 110.4167 },
  { "keyword": "yogyakarta", "name": "Yogyakarta", "continent": "Asia", "desc": "Capital of Special Region of Yogyakarta.", "img": "https://images.unsplash.com/photo-1589182337358-2cb63099350c?w=400", "lat": -7.7956, "lng": 110.3695 },
  { "keyword": "surabaya", "name": "Surabaya", "continent": "Asia", "desc": "Capital of East Java.", "img": "https://images.unsplash.com/photo-1544980649-060142e8876e?w=400", "lat": -7.2575, "lng": 112.7521 },
  { "keyword": "denpasar", "name": "Denpasar", "continent": "Asia", "desc": "Capital of Bali.", "img": "https://images.unsplash.com/photo-1590483736622-39da8af7ff8f?w=400", "lat": -8.6705, "lng": 115.2126 },
  { "keyword": "mataram", "name": "Mataram", "continent": "Asia", "desc": "Capital of West Nusa Tenggara.", "img": "https://images.unsplash.com/photo-1560233075-4c07056f7093?w=400", "lat": -8.5833, "lng": 116.1167 },
  { "keyword": "kupang", "name": "Kupang", "continent": "Asia", "desc": "Capital of East Nusa Tenggara.", "img": "https://images.unsplash.com/photo-1574041124441-285628b08709?w=400", "lat": -10.1707, "lng": 123.6079 },
  { "keyword": "pontianak", "name": "Pontianak", "continent": "Asia", "desc": "Capital of West Kalimantan.", "img": "https://images.unsplash.com/photo-1543329027-e4313f8d3811?w=400", "lat": -0.0263, "lng": 109.3425 },
  { "keyword": "palangkaraya", "name": "Palangkaraya", "continent": "Asia", "desc": "Capital of Central Kalimantan.", "img": "https://images.unsplash.com/photo-1510125869408-0cc23a9cc373?w=400", "lat": -2.2136, "lng": 113.9108 },
  { "keyword": "banjarmasin", "name": "Banjarmasin", "continent": "Asia", "desc": "Capital of South Kalimantan.", "img": "https://images.unsplash.com/photo-1594910398436-0740a6b72a6b?w=400", "lat": -3.3167, "lng": 114.5917 },
  { "keyword": "samarinda", "name": "Samarinda", "continent": "Asia", "desc": "Capital of East Kalimantan.", "img": "https://images.unsplash.com/photo-1585828010940-9925147ae721?w=400", "lat": -0.5022, "lng": 117.1536 },
  { "keyword": "tanjung selor", "name": "Tanjung Selor", "continent": "Asia", "desc": "Capital of North Kalimantan.", "img": "https://images.unsplash.com/photo-1596541223130-5d31a73fb6c6?w=400", "lat": 2.8333, "lng": 117.3667 },
  { "keyword": "manado", "name": "Manado", "continent": "Asia", "desc": "Capital of North Sulawesi.", "img": "https://images.unsplash.com/photo-1549410972-23351919293a?w=400", "lat": 1.4748, "lng": 124.8428 },
  { "keyword": "gorontalo", "name": "Gorontalo", "continent": "Asia", "desc": "Capital of Gorontalo.", "img": "https://images.unsplash.com/photo-1541480601022-23057d163484?w=400", "lat": 0.5435, "lng": 123.0568 },
  { "keyword": "palu", "name": "Palu", "continent": "Asia", "desc": "Capital of Central Sulawesi.", "img": "https://images.unsplash.com/photo-1524312646912-f5f8ff33044a?w=400", "lat": -0.8917, "lng": 119.8707 },
  { "keyword": "mamuju", "name": "Mamuju", "continent": "Asia", "desc": "Capital of West Sulawesi.", "img": "https://images.unsplash.com/photo-1514282401047-d79a71a590e8?w=400", "lat": -2.6772, "lng": 118.8895 },
  { "keyword": "makassar", "name": "Makassar", "continent": "Asia", "desc": "Capital of South Sulawesi.", "img": "https://images.unsplash.com/photo-1558434778-957176d6556e?w=400", "lat": -5.1476, "lng": 119.4140 },
  { "keyword": "kendari", "name": "Kendari", "continent": "Asia", "desc": "Capital of Southeast Sulawesi.", "img": "https://images.unsplash.com/photo-1512813195386-6cf811ad3542?w=400", "lat": -3.9985, "lng": 122.5129 },
  { "keyword": "sofifi", "name": "Sofifi", "continent": "Asia", "desc": "Capital of North Maluku.", "img": "https://images.unsplash.com/photo-1582260656827-0208df04e2f9?w=400", "lat": 0.7333, "lng": 127.5000 },
  { "keyword": "ambon", "name": "Ambon", "continent": "Asia", "desc": "Capital of Maluku.", "img": "https://images.unsplash.com/photo-1559163276-f36894082269?w=400", "lat": -3.6954, "lng": 128.1815 },
  { "keyword": "manokwari", "name": "Manokwari", "continent": "Asia", "desc": "Capital of West Papua.", "img": "https://images.unsplash.com/photo-1579294800821-694d95e86143?w=400", "lat": -0.8614, "lng": 134.0620 },
  { "keyword": "sorong", "name": "Sorong", "continent": "Asia", "desc": "Capital of Southwest Papua.", "img": "https://images.unsplash.com/photo-1588661701389-98007205ca1b?w=400", "lat": -0.8762, "lng": 131.2558 },
  { "keyword": "jayapura", "name": "Jayapura", "continent": "Asia", "desc": "Capital of Papua.", "img": "https://images.unsplash.com/photo-1596797038583-086836170611?w=400", "lat": -2.5916, "lng": 140.7122 },
  { "keyword": "nabire", "name": "Nabire", "continent": "Asia", "desc": "Capital of Central Papua.", "img": "https://images.unsplash.com/photo-1568252277864-d6e033d52c80?w=400", "lat": -3.3667, "lng": 135.4833 },
  { "keyword": "wamena", "name": "Wamena", "continent": "Asia", "desc": "Capital of Highland Papua.", "img": "https://images.unsplash.com/photo-1544735716-392fe2489ffa?w=400", "lat": -4.0833, "lng": 138.9500 },
  { "keyword": "merauke", "name": "Merauke", "continent": "Asia", "desc": "Capital of South Papua.", "img": "https://images.unsplash.com/photo-1512470876302-972faa2aa9a4?w=400", "lat": -8.4991, "lng": 140.4047 }
]